     2.11           OBSERVATION DATA    G (GPS)             RINEX VERSION / TYPE
Topcon Tools 8.2                        22-FEB-18 12:39     PGM / RUN BY / DATE
build October 04, 2011  by (c) Topcon Positioning Systems   COMMENT
2                                                           MARKER NAME
                                                            MARKER NUMBER
-Unknown-           -Unknown-                               OBSERVER / AGENCY
8RIYQ51WD8G         Topcon              -Unknown-           REC # / TYPE / VERS
-Unknown-           -Unknown-                               ANT # / TYPE
  6348893.6251   -55726.9751   606073.6634                  APPROX POSITION XYZ
        0.0000        0.0000        0.0000                  ANTENNA: DELTA H/E/N
     1     1                                                WAVELENGTH FACT L1/2
  2018     2    21    16    41   10.0000000     GPS         TIME OF FIRST OBS
  2018     2    21    16    47   18.0000000     GPS         TIME OF LAST OBS
     1.000                                                  INTERVAL
    18                                                      LEAP SECONDS
     9                                                      # OF SATELLITES
     7    C1    P1    P2    L1    L2    D1    D2            # / TYPES OF OBSERV
   G 2   369   369   369   369   369   369   369            PRN / # OF OBS
   G12   369   369   369   369   369   369   369            PRN / # OF OBS
   G15   369   369   369   369   369   369   369            PRN / # OF OBS
   G20   369   362   362   369   362   369   362            PRN / # OF OBS
   G21   369   369   369   369   369   369   369            PRN / # OF OBS
   G24   369   364   364   369   364   369   364            PRN / # OF OBS
   G25   369   363   363   369   363   369   363            PRN / # OF OBS
   G29   369   369   369   369   369   369   369            PRN / # OF OBS
   G32   369   369   369   369   369   369   369            PRN / # OF OBS
SE TPS 00000000                                             COMMENT
                                                            END OF HEADER
 18  2 21 16 41 10.0000000  0  9G 2G12G15G20G21G24G25G29G32         
  24301303.580 7  24301301.16044  24301303.82644 127704198.961 7  99509778.60144
      1067.757         832.022  
  23113168.332 7  23113167.40745  23113171.60845 121460511.399 7  94644566.67945
       583.479         454.654  
  22471655.670 8  22471656.12545  22471663.50845 118089332.618 8  92017667.88845
      -580.117        -452.037  
  23890400.691 6                                 125544907.385 6                
      1369.405                  
  23874658.937 6  23874655.29741  23874661.04541 125462166.096 6  97762731.65041
      4883.599        3805.414  
  21627462.904 8                                 113653066.950 8                
      2627.446                  
  22584532.667 7                                 118682516.582 7                
      1483.418                  
  20152458.248 8  20152456.99747  20152463.09947 105901877.559 8  82520952.93047
      2994.545        2333.412  
  23774874.891 7  23774873.72945  23774885.01145 124937809.402 7  97354141.47645
      5154.452        4016.451  
 18  2 21 16 41 11.0000000  0  9G 2G12G15G20G21G24G25G29G32         
  24301100.486 7  24301098.30644  24301100.98544 127703131.038 7  99508946.44744
      1067.964         832.187  
  23113057.413 7  23113056.68345  23113060.76445 121459927.566 7  94644111.74545
       584.111         455.151  
  22471765.707 8  22471766.66445  22471772.55845 118089912.644 8  92018119.85145
      -579.964        -451.913  
  23890140.304 6                                 125543537.732 6                
      1369.918                  
  23873729.644 6  23873726.63741  23873732.08741 125457282.339 6  97758926.13341
      4883.956        3805.663  
  21626962.690 8                                 113650439.325 8                
      2627.688                  
  22584250.495 7                                 118681032.943 7                
      1483.820                  
  20151888.410 8  20151887.52047  20151892.54347 105898883.165 8  82518619.63747
      2994.228        2333.163  
  23773894.067 7  23773893.33645  23773903.39645 124932654.926 7  97350125.00645
      5154.476        4016.470  
 18  2 21 16 41 12.0000000  0  9G 2G12G15G20G21G24G25G29G32         
  24300897.508 7  24300895.17544  24300898.00144 127702063.247 7  99508114.39944
      1067.724         831.994  
  23112946.289 7  23112945.75345  23112949.87245 121459343.375 7  94643656.52945
       584.368         455.356  
  22471876.159 7  22471877.00145  22471882.09345 118090492.626 7  92018571.78845
      -579.959        -451.923  
  23889879.347 6                                 125542167.557 6                
      1370.435                  
  23872799.572 6  23872797.67641  23872802.95741 125452398.188 6  97755120.30641
      4884.346        3805.983  
  21626462.749 8                                 113647811.753 8                
      2627.547                  
  22583968.080 7                                 118679549.080 7                
      1483.973                  
  20151318.666 8  20151318.06047  20151322.39247 105895889.197 8  82516286.67547
      2993.754        2332.796  
  23772913.577 7  23772912.78945  23772922.18145 124927500.576 7  97346108.62945
      5154.287        4016.331  
 18  2 21 16 41 13.0000000  0  9G 2G12G15G20G21G24G25G29G32         
  24300694.132 7  24300692.13744  24300695.13244 127700995.516 7  99507282.40444
      1067.701         831.970  
  23112834.973 7  23112834.61245  23112838.83045 121458758.716 7  94643200.95345
       584.894         455.756  
  22471986.415 7  22471987.24845  22471991.82745 118091072.528 7  92019023.65945
      -579.862        -451.839  
  23889618.370 6                                 125540796.799 6                
      1371.049                  
  23871870.451 6  23871868.79141  23871873.98441 125447513.704 6  97751314.22141
      4884.651        3806.213  
  21625962.837 8                                 113645184.202 8                
      2627.539                  
  22583685.544 7                                 118678064.959 7                
      1484.251                  
  20150748.937 8  20150748.56947  20150752.46747 105892895.564 8  82513953.97447
      2993.466        2332.572  
  23771933.000 7  23771932.10845  23771940.81045 124922346.310 7  97342092.32145
      5154.223        4016.273  
 18  2 21 16 41 14.0000000  0  9G 2G12G15G20G21G24G25G29G32         
  24300491.031 7  24300489.16244  24300492.01144 127699928.052 7  99506450.61544
      1067.331         831.686  
  23112723.567 7  23112723.42645  23112727.43345 121458173.736 7  94642745.11845
       585.140         455.965  
  22472096.730 7  22472097.49745  22472101.80745 118091652.295 7  92019475.43545
      -579.699        -451.728  
  23889357.544 6                                 125539425.475 6                
      1371.606                  
  23870940.698 6  23870938.98141  23870944.49441 125442628.674 6  97747507.71241
      4885.304        3806.721  
  21625462.763 8                                 113642556.779 8                
      2627.360                  
  22583403.152 7                                 118676580.562 7                
      1484.535                  
  20150179.291 8  20150179.10847  20150182.68747 105889902.260 8  82511621.53047
      2993.139        2332.315  
  23770952.166 7  23770951.39645  23770959.62845 124917192.062 7  97338076.03145
      5154.240        4016.282  
 18  2 21 16 41 15.0000000  0  9G 2G12G15G20G21G24G25G29G32         
  24300287.810 7  24300286.44544  24300289.12544 127698860.778 7  99505618.98744
      1067.178         831.547  
  23112612.273 7  23112612.05645  23112616.14645 121457588.511 7  94642289.09945
       585.347         456.111  
  22472207.140 8  22472207.76445  22472211.81545 118092231.873 8  92019927.05045
      -579.484        -451.535  
  23889096.739 6                                 125538053.415 6                
      1372.429                  
  23870011.519 6  23870009.38141  23870015.36041 125437742.979 6  97743700.67041
      4886.027        3807.309  
  21624962.733 7  21624957.65545  21624989.33445 113639929.502 7  88550599.28545
      2627.203        2047.177  
  22583120.768 8                                 118675096.003 8                
      1484.640                  
  20149609.841 8  20149609.62147  20149613.01147 105886909.254 8  82509289.32347
      2992.857        2332.088  
  23769971.070 7  23769970.70345  23769978.49545 124912037.967 7  97334059.85645
      5154.017        4016.117  
 18  2 21 16 41 16.0000000  0  9G 2G12G15G20G21G24G25G29G32         
  24300084.553 7  24300083.52044  24300085.90644 127697793.226 7  99504787.12344
      1067.691         831.982  
  23112500.890 7  23112500.54945  23112504.94445 121457002.654 7  94641832.58245
       586.173         456.766  
  22472317.520 8  22472318.03045  22472321.95245 118092811.388 8  92020378.61945
      -579.484        -451.546  
  23888835.640 6                                 125536680.944 6                
      1372.676                  
  23869082.017 6  23869080.01043  23869085.85943 125432857.177 6  97739893.56843
      4885.855        3807.132  
  21624462.847 8  21624459.31745  21624480.70245 113637301.981 8  88548551.83345
      2627.643        2047.451  
  22582838.359 8  22582834.84545  22582862.02045 118673611.205 8  92472952.53645
      1484.917        1156.367  
  20149040.216 8  20149040.20147  20149043.50447 105883916.730 8  82506957.48647
      2992.282        2331.652  
  23768990.226 7  23768990.08345  23768997.72245 124906884.092 7  97330043.84845
      5153.765        4015.924  
 18  2 21 16 41 17.0000000  0  9G 2G12G15G20G21G24G25G29G32         
  24299881.210 7  24299880.49344  24299883.14344 127696725.934 7  99503955.46344
      1067.162         831.558  
  23112389.165 7  23112389.09445  23112393.43645 121456416.451 7  94641375.80245
       586.377         456.912  
  22472427.910 7  22472428.39045  22472432.17945 118093391.006 7  92020830.26945
      -579.670        -451.691  
  23888574.392 6  23888571.94943  23888574.25043 125535308.059 6  97819722.83543
      1373.092        1071.442  
  23868151.954 6  23868150.13143  23868156.56743 125427971.077 6  97736086.21843
      4886.250        3807.474  
  21623962.729 8  21623960.62345  21623975.00445 113634674.615 8  88546504.51345
      2627.289        2047.255  
  22582555.630 8  22582553.08245  22582572.39345 118672126.152 8  92471795.34545
      1485.180        1157.191  
  20148470.889 8  20148470.81247  20148474.13247 105880924.689 8  82504626.02847
      2991.801        2331.268  
  23768009.376 7  23768009.35845  23768016.86145 124901730.328 7  97326027.92945
      5153.710        4015.875  
 18  2 21 16 41 18.0000000  0  9G 2G12G15G20G21G24G25G29G32         
  24299678.003 7  24299677.37044  24299680.08044 127695658.790 7  99503123.92144
      1067.070         831.483  
  23112277.580 7  23112277.44645  23112281.76645 121455829.653 7  94640918.55445
       587.094         457.482  
  22472538.412 8  22472538.74945  22472542.40845 118093970.931 8  92021282.15645
      -580.078        -452.004  
  23888313.520 6  23888311.26143  23888313.65643 125533935.085 6  97818652.98243
      1373.018        1069.854  
  23867221.825 6  23867220.43943  23867227.05743 125423085.015 6  97732278.89143
      4886.041        3807.315  
  21623462.822 8  21623461.36346  21623472.61146 113632047.344 8  88544457.27846
      2627.222        2047.192  
  22582272.954 8  22582271.25045  22582285.65145 118670640.686 8  92470637.82145
      1485.673        1157.691  
  20147901.655 8  20147901.48547  20147904.86347 105877933.164 8  82502294.96647
      2991.266        2330.865  
  23767028.958 7  23767028.67345  23767036.08845 124896576.450 7  97322011.92345
      5153.934        4016.049  
 18  2 21 16 41 19.0000000  0  9G 2G12G15G20G21G24G25G29G32         
  24299475.340 7  24299474.25144  24299476.97844 127694591.842 7  99502292.53644
      1066.850         831.306  
  23112166.036 7  23112165.78645  23112170.35945 121455242.660 7  94640461.16145
       587.091         457.465  
  22472648.590 8  22472648.96345  22472652.57745 118094550.394 8  92021733.68945
      -579.233        -451.357  
  23888051.785 6  23888050.06143  23888053.09043 125532561.113 6  97817582.34943
      1374.471        1071.022  
  23866291.799 6  23866290.32143  23866297.39143 125418197.978 6  97728470.82143
      4887.525        3808.442  
  21622962.803 8  21622961.74946  21622971.14846 113629420.173 8  88542410.13246
      2627.122        2047.101  
  22581990.176 7  22581988.90546  22582000.52046 118669154.978 7  92469480.12446
      1485.829        1157.782  
  20147332.408 8  20147332.27447  20147335.55247 105874941.767 8  82499964.00847
      2991.333        2330.905  
  23766048.168 7  23766048.04045  23766055.20345 124891422.610 7  97317995.94545
      5153.820        4015.963  
 18  2 21 16 41 20.0000000  0  9G 2G12G15G20G21G24G25G29G32         
  24299272.226 7  24299271.53944  24299273.65644 127693524.831 7  99501461.09644
      1067.043         831.468  
  23112054.051 7  23112054.05145  23112058.52945 121454655.141 7  94640003.35545
       587.782         458.012  
  22472758.822 8  22472759.21745  22472762.91645 118095129.894 8  92022185.24745
      -579.518        -451.570  
  23887790.870 6  23887788.73943  23887792.02443 125531186.777 6  97816511.44643
      1374.517        1071.038  
  23865361.979 6  23865360.46143  23865367.38843 125413310.807 6  97724662.64943
      4887.238        3808.222  
  21622462.918 8  21622461.92646  21622470.42346 113626792.921 8  88540362.92546
      2627.292        2047.238  
  22581707.465 7  22581706.36246  22581716.46646 118667669.046 7  92468322.25246
      1486.044        1157.961  
  20146763.314 8  20146763.07847  20146766.29347 105871950.861 8  82497633.43347
      2990.660        2330.384  
  23765067.397 7  23765067.43545  23765074.54345 124886268.990 7  97313980.13945
      5153.510        4015.720  
 18  2 21 16 41 21.0000000  0  9G 2G12G15G20G21G24G25G29G32         
  24299069.125 7  24299068.45944  24299070.49944 127692457.778 7  99500629.62944
      1067.073         831.480  
  23111942.238 7  23111942.04445  23111946.71445 121454067.111 7  94639545.14845
       588.286         458.407  
  22472869.206 7  22472869.45345  22472873.16745 118095709.367 7  92022636.78445
      -579.458        -451.528  
  23887529.336 6  23887527.38343  23887530.17343 125529811.944 6  97815440.13443
      1375.081        1071.516  
  23864432.446 6  23864430.72843  23864437.39543 125408423.360 6  97720854.24543
      4887.584        3808.522  
  21621962.835 8  21621962.09246  21621969.85346 113624165.606 8  88538315.66746
      2627.347        2047.282  
  22581424.680 8  22581423.71646  22581432.74146 118666182.813 8  92467164.14846
      1486.384        1158.219  
  20146194.247 8  20146194.04147  20146197.15347 105868960.363 8  82495303.17847
      2990.294        2330.096  
  23764086.628 7  23764086.75745  23764093.94445 124881115.402 7  97309964.35945
      5153.573        4015.767  
 18  2 21 16 41 22.0000000  0  9G 2G12G15G20G21G24G25G29G32         
  24298866.183 7  24298865.44344  24298867.54044 127691391.146 7  99499798.49144
      1066.421         830.974  
  23111830.572 7  23111830.11945  23111834.68845 121453478.782 7  94639086.70345
       588.478         458.564  
  22472979.383 7  22472979.63145  22472983.39745 118096288.771 7  92023088.26945
      -579.371        -451.459  
  23887267.258 6  23887266.15543  23887268.96243 125528436.507 6  97814368.36643
      1375.739        1071.996  
  23863502.208 6  23863500.89743  23863507.44043 125403535.288 6  97717045.35343
      4888.386        3809.135  
  21621463.024 8  21621462.33346  21621469.55546 113621538.559 8  88536268.61546
      2626.912        2046.949  
  22581141.785 8  22581140.97946  22581149.15646 118664696.254 8  92466005.78946
      1486.721        1158.486  
  20145625.081 8  20145624.99447  20145628.16747 105865970.177 8  82492973.16347
      2990.030        2329.894  
  23763105.831 7  23763106.02645  23763113.18145 124875961.809 7  97305948.57945
      5153.595        4015.780  
 18  2 21 16 41 23.0000000  0  9G 2G12G15G20G21G24G25G29G32         
  24298663.362 7  24298662.42344  24298664.49344 127690324.454 7  99498967.30744
      1066.722         831.207  
  23111718.396 7  23111718.05745  23111722.88845 121452889.966 7  94638627.88945
       589.059         458.999  
  22473089.660 8  22473089.79345  22473093.56545 118096868.094 8  92023539.68645
      -579.281        -451.384  
  23887005.521 6  23887004.44743  23887007.32243 125527060.575 6  97813296.22443
      1376.179        1072.330  
  23862571.972 6  23862570.81943  23862577.17943 125398646.955 6  97713236.27043
      4888.463        3809.179  
  21620963.171 8  21620962.49046  21620969.41146 113618911.425 8  88534221.49246
      2627.178        2047.158  
  22580858.750 8  22580858.13546  22580865.98846 118663209.457 8  92464847.24646
      1486.916        1158.635  
  20145056.196 8  20145056.04547  20145059.22647 105862980.393 8  82490643.45947
      2989.584        2329.548  
  23762125.292 7  23762125.46145  23762132.40445 124870808.326 7  97301932.87445
      5153.427        4015.666  
 18  2 21 16 41 24.0000000  0  9G 2G12G15G20G21G24G25G29G32         
  24298460.391 7  24298459.39444  24298461.52644 127689257.892 7  99498136.21944
      1066.498         831.040  
  23111606.406 7  23111605.93545  23111610.69345 121452300.734 7  94638168.74345
       589.441         459.311  
  22473199.851 7  22473199.97245  22473203.86245 118097447.404 7  92023991.10145
      -579.304        -451.414  
  23886742.917 6  23886742.81443  23886745.23743 125525684.169 6  97812223.71043
      1376.642        1072.699  
  23861641.166 6  23861640.10643  23861646.83343 125393758.243 6  97709426.89543
      4888.901        3809.521  
  21620463.203 8  21620462.59146  21620469.25846 113616284.337 8  88532174.41346
      2627.065        2047.058  
  22580575.599 8  22580575.20546  22580582.68846 118661722.387 8  92463688.49446
      1487.208        1158.857  
  20144487.349 8  20144487.22747  20144490.42647 105859991.002 8  82488314.06447
      2989.194        2329.240  
  23761144.525 7  23761144.84945  23761151.76845 124865654.927 7  97297917.24445
      5153.358        4015.594  
 18  2 21 16 41 25.0000000  0  9G 2G12G15G20G21G24G25G29G32         
  24298257.397 7  24298256.54144  24298258.50644 127688191.349 7  99497305.15344
      1066.534         831.055  
  23111494.221 7  23111493.82345  23111498.58445 121451711.032 7  94637709.23545
       589.937         459.688  
  22473309.977 8  22473310.09045  22473314.01045 118098026.611 8  92024442.42945
      -579.156        -451.285  
  23886480.606 6  23886480.98243  23886483.49743 125524307.190 6  97811150.74043
      1377.266        1073.198  
  23860711.464 6  23860709.95643  23860716.61043 125388869.133 6  97705617.20443
      4889.308        3809.848  
  21619963.238 8  21619962.69846  21619969.18946 113613657.242 8  88530127.32846
      2627.098        2047.087  
  22580292.635 8  22580292.26546  22580299.49446 118660235.052 8  92462529.53446
      1487.467        1159.064  
  20143918.552 8  20143918.44447  20143921.62047 105857001.967 8  82485984.94747
      2988.856        2328.978  
  23760163.639 7  23760164.25145  23760171.15345 124860501.584 7  97293901.65345
      5153.314        4015.571  
 18  2 21 16 41 26.0000000  0  9G 2G12G15G20G21G24G25G29G32         
  24298054.399 7  24298053.59544  24298055.63044 127687124.942 7  99496474.18644
      1066.338         830.918  
  23111382.048 7  23111381.63245  23111386.41745 121451120.926 7  94637249.41145
       590.308         459.982  
  22473420.180 8  22473420.31845  22473424.11345 118098605.752 8  92024893.70645
      -579.107        -451.251  
  23886218.093 6  23886218.61143  23886221.10543 125522929.692 6  97810077.36943
      1377.757        1073.572  
  23859780.266 6  23859779.33043  23859786.38043 125383979.617 6  97701807.20343
      4889.720        3810.156  
  21619463.337 8  21619462.80546  21619469.15746 113611030.205 8  88528080.28546
      2627.008        2047.023  
  22580009.461 8  22580009.18946  22580016.35846 118658747.442 8  92461370.35746
      1487.748        1159.285  
  20143349.808 8  20143349.71047  20143352.89947 105854013.327 8  82483656.13547
      2988.443        2328.659  
  23759183.210 7  23759183.48645  23759190.62545 124855348.345 7  97289886.14645
      5153.188        4015.465  
 18  2 21 16 41 27.0000000  0  9G 2G12G15G20G21G24G25G29G32         
  24297851.558 7  24297850.69944  24297852.59444 127686058.656 7  99495643.31244
      1066.225         830.826  
  23111269.708 7  23111269.42145  23111274.05245 121450530.469 7  94636789.31545
       590.632         460.232  
  22473530.427 7  22473530.48645  22473534.35245 118099184.904 7  92025344.99245
      -579.157        -451.290  
  23885956.025 6  23885956.25943  23885958.84743 125521551.713 6  97809003.62543
      1378.218        1073.931  
  23858849.663 6  23858849.07943  23858856.03843 125379089.772 6  97697996.94143
      4890.008        3810.392  
  21618963.441 8  21618962.90546  21618969.26346 113608403.257 8  88526033.31346
      2626.902        2046.936  
  22579726.359 8  22579726.11846  22579733.18446 118657259.622 8  92460211.01846
      1487.925        1159.421  
  20142781.195 8  20142781.03847  20142784.28347 105851025.119 8  82481327.66147
      2987.991        2328.306  
  23758202.754 7  23758202.94945  23758209.82145 124850195.216 7  97285870.72445
      5153.074        4015.379  
 18  2 21 16 41 28.0000000  0  9G 2G12G15G20G21G24G25G29G32         
  24297648.779 7  24297647.78344  24297649.76944 127684992.543 7  99494812.57044
      1066.027         830.676  
  23111157.435 7  23111157.04545  23111161.63745 121449939.611 7  94636328.90145
       591.059         460.573  
  22473640.626 8  22473640.70745  22473644.58045 118099764.060 8  92025796.28045
      -579.159        -451.288  
  23885694.012 6  23885693.82143  23885696.15843 125520173.328 6  97807929.55443
      1378.589        1074.233  
  23857919.722 6  23857918.35543  23857925.66643 125374199.652 6  97694186.45743
      4890.258        3810.595  
  21618463.534 8  21618463.06746  21618469.37246 113605776.416 8  88523986.42046
      2626.788        2046.853  
  22579443.223 8  22579443.01046  22579450.01646 118655771.573 8  92459051.49546
      1488.163        1159.614  
  20142212.678 8  20142212.44747  20142215.61947 105848037.364 8  82478999.53747
      2987.529        2327.948  
  23757221.868 7  23757222.38945  23757229.29845 124845042.252 7  97281855.43345
      5152.881        4015.226  
 18  2 21 16 41 29.0000000  0  9G 2G12G15G20G21G24G25G29G32         
  24297445.948 7  24297444.95444  24297446.83944 127683926.590 7  99493981.96844
      1065.873         830.533  
  23111044.918 7  23111044.63645  23111049.06345 121449348.409 7  94635868.22645
       591.374         460.805  
  22473750.871 8  22473750.80345  22473754.71645 118100343.260 8  92026247.60445
      -579.222        -451.342  
  23885431.725 6  23885431.59243  23885434.19343 125518794.467 6  97806855.11743
      1379.098        1074.620  
  23856988.544 6  23856987.66243  23856994.90243 125369309.209 6  97690375.73243
      4890.604        3810.845  
  21617963.630 8  21617963.26046  21617969.43846 113603149.710 8  88521939.63746
      2626.638        2046.728  
  22579160.081 8  22579159.78946  22579166.81346 118654283.328 8  92457891.82646
      1488.342        1159.742  
  20141644.321 8  20141644.01047  20141647.15647 105845050.070 8  82476671.77747
      2987.063        2327.578  
  23756241.457 7  23756241.72545  23756248.82345 124839889.409 7  97277840.22645
      5152.782        4015.165  
 18  2 21 16 41 30.0000000  0  9G 2G12G15G20G21G24G25G29G32         
  24297242.553 7  24297241.90244  24297244.14544 127682860.775 7  99493151.45844
      1065.745         830.463  
  23110931.928 7  23110932.05845  23110936.39045 121448756.789 7  94635407.22245
       591.829         461.169  
  22473861.107 7  22473860.87145  22473864.94545 118100922.397 7  92026698.87745
      -579.105        -451.248  
  23885169.409 6  23885169.17143  23885171.98443 125517415.103 6  97805780.28843
      1379.616        1075.026  
  23856058.005 6  23856057.19943  23856064.31943 125364418.390 6  97686564.70243
      4891.008        3811.183  
  21617463.834 8  21617463.40546  21617469.63446 113600523.034 8  88519892.87646
      2626.662        2046.749  
  22578876.891 8  22578876.47246  22578883.60646 118652794.835 8  92456731.96146
      1488.617        1159.963  
  20141075.951 8  20141075.65647  20141078.76247 105842063.168 8  82474344.32047
      2986.706        2327.306  
  23755260.938 7  23755261.25345  23755268.28945 124834736.660 7  97273825.10145
      5152.703        4015.085  
 18  2 21 16 41 31.0000000  0  9G 2G12G15G20G21G24G25G29G32         
  24297039.824 7  24297038.94244  24297041.15644 127681795.005 7  99492320.98744
      1065.748         830.451  
  23110819.443 7  23110819.49145  23110823.84845 121448164.759 7  94634945.90345
       592.235         461.476  
  22473971.032 7  22473971.04745  22473975.16845 118101501.410 7  92027150.05845
      -578.951        -451.135  
  23884906.844 6  23884906.66643  23884909.13543 125516035.190 6  97804705.04043
      1380.188        1075.457  
  23855126.765 6  23855126.16443  23855133.64043 125359527.176 6  97682753.37543
      4891.411        3811.475  
  21616963.944 8  21616963.59646  21616969.84046 113597896.401 8  88517846.14946
      2626.611        2046.711  
  22578593.713 8  22578593.09146  22578600.23346 118651306.067 8  92455571.88346
      1488.906        1160.184  
  20140507.686 8  20140507.34547  20140510.41647 105839076.625 8  82472017.14247
      2986.363        2327.038  
  23754280.111 7  23754280.70545  23754287.93045 124829584.012 7  97269810.04645
      5152.597        4015.019  
 18  2 21 16 41 32.0000000  0  9G 2G12G15G20G21G24G25G29G32         
  24296836.898 7  24296836.13144  24296838.19844 127680729.414 7  99491490.65644
      1065.501         830.261  
  23110706.774 7  23110706.77845  23110711.08745 121447572.358 7  94634484.29445
       592.585         461.753  
  22474081.119 8  22474081.34145  22474085.31945 118102080.432 8  92027601.24345
      -579.027        -451.187  
  23884644.227 6  23884644.20143  23884646.45743 125514654.796 6  97803629.39143
      1380.634        1075.849  
  23854196.168 6  23854195.46743  23854202.59043 125354635.609 6  97678941.76843
      4891.744        3811.746  
  21616464.182 8  21616463.78346  21616470.03146 113595269.855 8  88515799.49146
      2626.503        2046.624  
  22578310.198 7  22578309.71046  22578316.82546 118649817.083 7  92454411.63846
      1489.092        1160.328  
  20139939.446 8  20139939.13947  20139942.20447 105836090.523 8  82469690.31047
      2985.882        2326.660  
  23753299.673 7  23753300.13245  23753307.48145 124824431.491 7  97265795.10245
      5152.457        4014.889  
 18  2 21 16 41 33.0000000  0  9G 2G12G15G20G21G24G25G29G32         
  24296634.126 7  24296633.46944  24296635.74944 127679663.920 7  99490660.40244
      1065.446         830.215  
  23110594.132 7  23110593.84645  23110598.22945 121446979.543 7  94634022.35545
       593.023         462.104  
  22474191.357 8  22474191.64145  22474195.52345 118102659.410 8  92028052.39445
      -578.956        -451.134  
  23884381.659 6  23884381.62843  23884383.96543 125513273.923 6  97802553.38443
      1381.113        1076.187  
  23853265.433 6  23853264.64743  23853271.64543 125349743.647 6  97675129.86243
      4892.159        3812.056  
  21615964.396 8  21615964.00946  21615970.25646 113592643.357 8  88513752.86646
      2626.474        2046.607  
  22578026.867 8  22578026.29146  22578033.41146 118648327.843 8  92453251.19446
      1489.368        1160.543  
  20139371.270 8  20139370.96947  20139374.06147 105833104.818 8  82467363.78647
      2985.506        2326.369  
  23752319.633 7  23752319.77945  23752327.00145 124819279.052 7  97261780.21445
      5152.398        4014.859  
 18  2 21 16 41 34.0000000  0  9G 2G12G15G20G21G24G25G29G32         
  24296431.761 7  24296430.58144  24296432.95544 127678598.559 7  99489830.24844
      1065.294         830.105  
  23110481.340 7  23110480.96345  23110485.31745 121446386.358 7  94633560.13345
       593.369         462.364  
  22474301.443 8  22474301.70945  22474305.69645 118103238.397 8  92028503.55145
      -578.992        -451.159  
  23884118.430 6  23884118.61943  23884121.16543 125511892.555 6  97801477.00143
      1381.614        1076.570  
  23852334.817 6  23852333.80643  23852340.79843 125344851.393 6  97671317.72143
      4892.400        3812.258  
  21615464.673 8  21615464.24446  21615470.39446 113590016.934 8  88511706.30246
      2626.385        2046.533  
  22577743.311 8  22577742.83346  22577749.97346 118646838.374 8  92452090.56746
      1489.583        1160.718  
  20138803.137 8  20138802.88047  20138806.00747 105830119.539 8  82465037.59547
      2985.067        2326.025  
  23751339.153 7  23751339.31345  23751346.54345 124814126.743 7  97257765.43045
      5152.243        4014.731  
 18  2 21 16 41 35.0000000  0  9G 2G12G15G20G21G24G25G29G32         
  24296228.919 7  24296228.00844  24296230.22644 127677533.332 7  99489000.20544
      1065.159         829.986  
  23110368.265 7  23110368.17545  23110372.37045 121445792.784 7  94633097.61445
       593.769         462.668  
  22474411.626 8  22474411.94245  22474415.91845 118103817.346 8  92028954.68145
      -578.929        -451.117  
  23883855.412 6  23883855.79843  23883857.93143 125510510.717 6  97800400.21743
      1382.074        1076.985  
  23851403.753 6  23851402.66643  23851409.66743 125339958.804 6  97667505.31643
      4892.757        3812.537  
  21614964.888 8  21614964.47746  21614970.56746 113587390.581 8  88509659.79546
      2626.317        2046.479  
  22577459.880 8  22577459.29846  22577466.47146 118645348.657 8  92450929.75146
      1489.840        1160.911  
  20138235.105 8  20138234.82447  20138237.98247 105827134.676 8  82462711.73147
      2984.654        2325.700  
  23750358.552 7  23750358.74445  23750366.02345 124808974.523 7  97253750.71945
      5152.176        4014.676  
 18  2 21 16 41 36.0000000  0  9G 2G12G15G20G21G24G25G29G32         
  24296026.179 7  24296025.31944  24296027.42144 127676468.220 7  99488170.24144
      1065.055         829.925  
  23110255.458 7  23110255.01045  23110259.28945 121445198.785 7  94632634.75645
       594.211         463.026  
  22474521.654 8  22474522.04145  22474526.12645 118104396.255 8  92029405.77845
      -578.890        -451.081  
  23883592.298 6  23883592.70543  23883595.27743 125509128.377 6  97799323.08143
      1382.591        1077.312  
  23850472.775 6  23850471.29843  23850478.91143 125335065.866 6  97663692.64343
      4893.112        3812.806  
  21614465.195 8  21614464.67146  21614470.72346 113584764.274 8  88507613.32346
      2626.285        2046.455  
  22577176.373 7  22577175.74946  22577182.92546 118643858.660 7  92449768.71446
      1490.137        1161.147  
  20137667.183 8  20137666.88147  20137670.07347 105824150.203 8  82460386.16647
      2984.278        2325.416  
  23749378.360 7  23749378.40945  23749385.71045 124803822.392 7  97249736.07345
      5152.086        4014.613  
 18  2 21 16 41 37.0000000  0  9G 2G12G15G20G21G24G25G29G32         
  24295823.542 7  24295822.72244  24295824.76844 127675403.253 7  99487340.39644
      1064.894         829.786  
  23110142.354 7  23110141.78645  23110146.05145 121444604.382 7  94632171.58845
       594.606         463.324  
  22474631.819 7  22474632.03245  22474636.21645 118104975.119 7  92029856.83545
      -578.840        -451.036  
  23883329.533 6  23883329.37543  23883332.27543 125507745.511 6  97798245.52343
      1383.129        1077.769  
  23849541.568 6  23849540.23843  23849547.48143 125330172.463 6  97659879.60743
      4893.636        3813.217  
  21613965.472 8  21613964.92846  21613971.00646 113582138.073 8  88505566.93446
      2626.147        2046.346  
  22576892.815 8  22576892.16746  22576899.45346 118642368.467 8  92448607.52346
      1490.292        1161.269  
  20137099.351 8  20137099.00447  20137102.25547 105821166.146 8  82458060.92447
      2983.850        2325.080  
  23748397.707 7  23748397.97345  23748405.25945 124798670.383 7  97245721.52045
      5151.948        4014.506  
 18  2 21 16 41 38.0000000  0  9G 2G12G15G20G21G24G25G29G32         
  24295621.234 7  24295619.95144  24295622.07144 127674338.362 7  99486510.61244
      1064.854         829.753  
  23110029.079 7  23110028.69245  23110032.99745 121444009.703 7  94631708.20345
       594.817         463.493  
  22474742.131 8  22474742.15945  22474746.50645 118105553.894 8  92030307.82945
      -578.732        -450.963  
  23883066.255 6  23883066.05643  23883069.39943 125506362.075 6  97797167.52743
      1383.721        1078.214  
  23848610.443 6  23848608.74943  23848616.28043 125325278.761 6  97656066.34243
      4893.851        3813.380  
  21613465.809 8  21613465.27846  21613471.28746 113579511.930 8  88503520.58846
      2626.115        2046.325  
  22576609.254 8  22576608.55346  22576615.81346 118640878.128 8  92447446.22146
      1490.411        1161.357  
  20136531.651 8  20136531.28147  20136534.46947 105818182.507 8  82455736.01347
      2983.429        2324.745  
  23747417.664 7  23747417.62845  23747424.80845 124793518.612 7  97241707.15745
      5151.652        4014.268  
 18  2 21 16 41 39.0000000  0  9G 2G12G15G20G21G24G25G29G32         
  24295418.403 7  24295417.45544  24295419.36344 127673273.632 7  99485680.95544
      1064.649         829.593  
  23109915.429 7  23109915.28645  23109919.89245 121443414.522 7  94631244.42745
       595.432         463.972  
  22474852.332 7  22474852.36245  22474856.76845 118106132.721 7  92030758.86245
      -578.852        -451.052  
  23882803.357 6  23882802.43143  23882805.56643 125504978.282 6  97796089.23043
      1383.971        1078.448  
  23847678.238 6  23847677.35043  23847684.87743 125320384.750 6  97652252.82943
      4894.165        3813.636  
  21612965.997 8  21612965.65646  21612971.56346 113576885.861 8  88501474.29946
      2626.031        2046.261  
  22576325.458 7  22576324.80346  22576332.15846 118639387.467 7  92446284.66646
      1490.823        1161.682  
  20135963.865 8  20135963.54947  20135966.80047 105815199.287 8  82453411.42847
      2983.010        2324.423  
  23746437.234 7  23746437.20445  23746444.49545 124788366.825 7  97237692.77745
      5151.795        4014.388  
 18  2 21 16 41 40.0000000  0  9G 2G12G15G20G21G24G25G29G32         
  24295215.896 7  24295214.77744  24295216.68144 127672209.137 7  99484851.47444
      1064.378         829.393  
  23109802.175 7  23109801.93845  23109806.49645 121442819.036 7  94630780.41145
       595.638         464.135  
  22474962.688 8  22474962.67145  22474966.88045 118106711.629 8  92031209.95845
      -578.949        -451.128  
  23882539.865 6  23882539.04443  23882541.99543 125503594.052 6  97795010.60843
      1384.449        1078.785  
  23846746.595 6  23846746.34543  23846753.57243 125315490.513 6  97648439.14243
      4894.351        3813.775  
  21612466.193 8  21612465.96446  21612471.85946 113574259.953 8  88499428.13846
      2625.828        2046.097  
  22576041.696 7  22576041.04146  22576048.47546 118637896.605 7  92445122.95446
      1490.962        1161.790  
  20135396.339 8  20135395.95247  20135399.17547 105812216.580 8  82451087.23947
      2982.450        2323.989  
  23745456.857 7  23745456.75445  23745464.15945 124783215.232 7  97233678.54845
      5151.495        4014.152  
 18  2 21 16 41 41.0000000  0  9G 2G12G15G20G21G24G25G29G32         
  24295013.302 7  24295012.27544  24295014.37744 127671144.801 7  99484022.12344
      1064.256         829.285  
  23109688.636 7  23109688.47545  23109693.09345 121442223.172 7  94630316.09745
       596.053         464.463  
  22475072.933 8  22475072.96745  22475076.93645 118107290.491 8  92031661.02045
      -578.840        -451.046  
  23882275.871 6  23882275.24643  23882278.60143 125502209.351 6  97793931.63043
      1384.936        1079.156  
  23845815.752 6  23845815.14843  23845822.01643 125310595.858 6  97644625.12243
      4894.863        3814.186  
  21611966.451 8  21611966.26546  21611972.20146 113571634.116 8  88497382.03246
      2625.801        2046.078  
  22575757.858 8  22575757.27346  22575764.80846 118636405.538 8  92443961.08146
      1491.170        1161.954  
  20134828.857 8  20134828.45747  20134831.65847 105809234.283 8  82448763.37147
      2982.092        2323.708  
  23744476.345 7  23744476.48945  23744483.96245 124778063.741 7  97229664.40145
      5151.440        4014.107  
 18  2 21 16 41 42.0000000  0  9G 2G12G15G20G21G24G25G29G32         
  24294810.962 7  24294809.72644  24294811.84344 127670080.579 7  99483192.85844
      1064.166         829.223  
  23109575.254 7  23109574.97945  23109579.59645 121441626.929 7  94629851.49545
       596.432         464.745  
  22475183.032 8  22475183.02645  22475187.09945 118107869.386 8  92032112.10945
      -578.910        -451.102  
  23882012.152 6  23882011.72843  23882015.08143 125500824.223 6  97792852.33143
      1385.341        1079.459  
  23844885.031 6  23844883.75043  23844890.46443 125305700.916 6  97640810.88843
      4895.086        3814.342  
  21611466.724 8  21611466.57946  21611472.51246 113569008.378 8  88495336.00246
      2625.689        2045.992  
  22575474.233 8  22575473.47546  22575481.08546 118634914.234 8  92442799.02746
      1491.422        1162.144  
  20134261.344 8  20134261.01347  20134264.28647 105806252.421 8  82446439.84447
      2981.644        2323.357  
  23743496.377 7  23743496.37945  23743503.58345 124772912.384 7  97225650.36145
      5151.290        4013.987  
 18  2 21 16 41 43.0000000  0  9G 2G12G15G20G21G24G25G29G32         
  24294608.631 7  24294607.33244  24294609.42644 127669016.457 7  99482363.67844
      1064.071         829.137  
  23109461.686 7  23109461.39845  23109466.14245 121441030.266 7  94629386.56045
       596.873         465.101  
  22475292.993 7  22475293.13845  22475297.39345 118108448.133 7  92032563.08045
      -578.674        -450.912  
  23881748.828 6  23881747.96743  23881751.45143 125499438.486 6  97791772.52643
      1386.041        1080.059  
  23843953.416 6  23843952.18643  23843959.05343 125300805.548 6  97636996.31943
      4895.581        3814.735  
  21610967.132 8  21610966.89746  21610972.84846 113566382.657 8  88493289.98546
      2625.712        2046.011  
  22575190.467 8  22575189.58446  22575197.24546 118633422.685 8  92441636.77946
      1491.672        1162.344  
  20133693.921 8  20133693.63847  20133696.91547 105803270.930 8  82444116.60447
      2981.306        2323.096  
  23742516.047 7  23742516.23145  23742523.39545 124767761.141 7  97221636.40545
      5151.187        4013.913  
 18  2 21 16 41 44.0000000  0  9G 2G12G15G20G21G24G25G29G32         
  24294405.830 7  24294404.80944  24294406.89144 127667952.452 7  99481534.58444
      1063.947         829.052  
  23109348.106 7  23109347.76445  23109352.47645 121440433.213 7  94628921.32445
       597.248         465.387  
  22475403.335 7  22475403.27545  22475407.52345 118109026.883 7  92033014.05045
      -578.751        -450.970  
  23881485.813 6  23881484.23843  23881487.85843 125498052.274 6  97790692.35543
      1386.450        1080.354  
  23843021.345 6  23843020.29543  23843027.51643 125295909.843 6  97633181.49043
      4895.874        3814.960  
  21610467.453 8  21610467.27746  21610473.21846 113563757.021 8  88491244.03446
      2625.593        2045.917  
  22574906.666 8  22574905.72746  22574913.38946 118631930.888 8  92440474.34346
      1491.920        1162.531  
  20133126.510 8  20133126.34747  20133129.61547 105800289.851 8  82441793.68447
      2980.872        2322.758  
  23741536.280 7  23741535.98745  23741543.22945 124762609.988 7  97217622.52745
      5151.107        4013.839  
 18  2 21 16 41 45.0000000  0  9G 2G12G15G20G21G24G25G29G32         
  24294203.510 7  24294202.36344  24294204.49944 127666888.602 7  99480705.60844
      1063.773         828.916  
  23109234.518 7  23109234.17945  23109238.73345 121439835.794 7  94628455.80345
       597.602         465.664  
  22475513.267 7  22475513.39145  22475517.68245 118109605.613 7  92033465.00845
      -578.720        -450.953  
  23881221.920 6  23881220.65443  23881224.20743 125496665.592 6  97789611.81343
      1386.916        1080.727  
  23842089.716 6  23842088.50943  23842095.67543 125291013.804 6  97629366.41043
      4896.206        3815.206  
  21609967.877 8  21609967.67846  21609973.57746 113561131.462 8  88489198.14546
      2625.521        2045.858  
  22574622.789 7  22574621.80146  22574629.45546 118630438.867 7  92439311.72446
      1492.133        1162.709  
  20132559.265 8  20132559.12747  20132562.39347 105797309.202 8  82439471.10147
      2980.434        2322.415  
  23740555.805 7  23740555.72545  23740563.06545 124757458.981 7  97213608.75545
      5150.934        4013.719  
 18  2 21 16 41 46.0000000  0  9G 2G12G15G20G21G24G25G29G32         
  24294000.897 7  24293999.78744  24294002.03844 127665824.871 7  99479876.72544
      1063.670         828.836  
  23109120.597 7  23109120.33045  23109124.99845 121439237.959 7  94627989.96045
       598.043         466.003  
  22475623.357 8  22475623.45645  22475627.66245 118110184.329 8  92033915.95345
      -578.709        -450.938  
  23880957.675 6  23880956.83643  23880960.26743 125495278.407 6  97788530.90643
      1387.437        1081.090  
  23841158.258 6  23841156.74043  23841164.05443 125286117.398 6  97625551.02343
      4896.589        3815.540  
  21609468.332 8  21609468.12246  21609473.96546 113558505.962 8  88487152.30046
      2625.470        2045.822  
  22574338.942 7  22574337.83946  22574345.42446 118628946.590 7  92438148.91046
      1492.405        1162.912  
  20131992.265 8  20131992.00147  20131995.28747 105794328.978 8  82437148.84847
      2980.012        2322.089  
  23739575.836 7  23739575.74445  23739582.82945 124752308.054 7  97209595.05045
      5150.888        4013.673  
 18  2 21 16 41 47.0000000  0  9G 2G12G15G20G21G24G25G29G32         
  24293798.752 7  24293797.40444  24293799.59144 127664761.276 7  99479047.94844
      1063.528         828.724  
  23109006.577 7  23109006.58645  23109011.17045 121438639.741 7  94627523.81745
       598.409         466.293  
  22475733.408 8  22475733.52045  22475737.71745 118110763.029 8  92034366.88945
      -578.693        -450.931  
  23880693.447 6  23880692.95543  23880696.04843 125493890.783 6  97787449.64243
      1387.843        1081.443  
  23840226.631 6  23840224.78443  23840232.40443 125281220.714 6  97621735.42343
      4896.823        3815.706  
  21608968.930 8  21608968.54046  21608974.37146 113555880.584 8  88485106.55046
      2625.317        2045.703  
  22574055.068 8  22574053.88746  22574061.45246 118627454.123 8  92436985.94846
      1492.562        1163.036  
  20131425.186 8  20131425.00447  20131428.27347 105791349.192 8  82434826.93747
      2979.566        2321.740  
  23738595.154 7  23738595.67245  23738602.66645 124747157.294 7  97205581.47045
      5150.676        4013.516  
 18  2 21 16 41 48.0000000  0  9G 2G12G15G20G21G24G25G29G32         
  24293596.311 7  24293594.97944  24293597.27544 127663697.890 7  99478219.34144
      1063.280         828.522  
  23108892.900 7  23108892.58745  23108897.45645 121438041.200 7  94627057.41545
       598.704         466.531  
  22475843.426 7  22475843.72545  22475847.81345 118111341.735 7  92034817.82845
      -578.709        -450.942  
  23880428.998 6  23880428.60743  23880432.04943 125492502.682 6  97786367.99843
      1388.339        1081.833  
  23839295.782 6  23839292.71743  23839300.63343 125276323.689 6  97617919.55643
      4897.195        3816.000  
  21608469.285 8  21608468.98546  21608474.74346 113553255.298 8  88483060.87346
      2625.241        2045.641  
  22573770.835 8  22573769.73546  22573777.43146 118625961.443 8  92435822.82246
      1492.786        1163.208  
  20130858.260 8  20130858.11547  20130861.32947 105788369.850 8  82432505.37147
      2979.121        2321.393  
  23737614.967 7  23737615.43045  23737622.52245 124742006.639 7  97201567.97645
      5150.602        4013.451  
 18  2 21 16 41 49.0000000  0  9G 2G12G15G20G21G24G25G29G32         
  24293393.844 7  24293392.76644  24293395.19244 127662634.685 7  99477390.86444
      1063.115         828.411  
  23108778.957 7  23108778.50245  23108783.51145 121437442.300 7  94626590.74245
       599.079         466.807  
  22475953.638 7  22475953.89445  22475958.04245 118111920.493 7  92035268.80845
      -578.783        -451.000  
  23880164.351 6  23880164.49043  23880168.23643 125491114.211 6  97785286.08443
      1388.657        1082.049  
  23838363.187 6  23838360.82543  23838368.74943 125271426.407 6  97614103.48843
      4897.411        3816.169  
  21607969.806 8  21607969.45546  21607975.20346 113550630.203 8  88481015.34246
      2624.999        2045.457  
  22573486.790 7  22573485.56446  22573493.29746 118624468.574 7  92434659.54746
      1492.962        1163.348  
  20130291.310 8  20130291.25947  20130294.47747 105785390.994 8  82430184.18447
      2978.613        2320.998  
  23736634.661 7  23736635.38945  23736642.48045 124736856.225 7  97197554.66845
      5150.293        4013.216  
 18  2 21 16 41 50.0000000  0  9G 2G12G15G20G21G24G25G29G32         
  24293192.010 7  24293190.52544  24293193.00444 127661571.613 7  99476562.50144
      1063.006         828.306  
  23108665.022 7  23108664.48445  23108669.35145 121436843.031 7  94626123.77945
       599.453         467.108  
  22476063.809 8  22476064.04745  22476068.20045 118112499.210 8  92035719.75545
      -578.697        -450.931  
  23879899.951 6  23879899.88543  23879903.61443 125489725.204 6  97784203.74743
      1389.275        1082.549  
  23837430.423 6  23837428.70043  23837436.82443 125266528.695 6  97610287.09943
      4897.926        3816.549  
  21607470.162 8  21607469.90446  21607475.66246 113548005.147 8  88478969.84446
      2625.037        2045.482  
  22573202.713 7  22573201.50146  22573209.25346 118622975.492 7  92433496.10446
      1493.190        1163.527  
  20129724.582 8  20129724.46547  20129727.68847 105782412.552 8  82427863.32147
      2978.235        2320.701  
  23735654.613 7  23735655.36245  23735662.38945 124731705.879 7  97193541.41145
      5150.312        4013.231  
 18  2 21 16 41 51.0000000  0  9G 2G12G15G20G21G24G25G29G32         
  24292989.792 7  24292988.23844  24292990.85644 127660508.651 7  99475734.21244
      1062.906         828.252  
  23108551.034 7  23108550.38945  23108555.18145 121436243.360 7  94625656.50445
       599.873         467.431  
  22476174.252 8  22476174.13145  22476178.31245 118113077.911 8  92036170.69045
      -578.694        -450.929  
  23879635.439 7  23879635.65543  23879639.33143 125488335.690 7  97783120.99743
      1389.766        1082.956  
  23836498.311 6  23836496.78443  23836504.91443 125261630.701 6  97606470.48143
      4898.135        3816.732  
  21606970.714 8  21606970.38246  21606976.18446 113545380.167 8  88476924.40746
      2624.942        2045.407  
  22572918.478 7  22572917.33946  22572925.14146 118621482.164 7  92432332.47146
      1493.450        1163.728  
  20129157.854 8  20129157.77547  20129161.01147 105779434.532 8  82425542.78547
      2977.809        2320.372  
  23734674.612 7  23734675.32945  23734682.25945 124726555.649 7  97189528.24745
      5150.171        4013.118  
 18  2 21 16 41 52.0000000  0  9G 2G12G15G20G21G24G25G29G32         
  24292787.291 7  24292786.03244  24292788.68244 127659445.826 7  99474906.04444
      1062.756         828.108  
  23108436.798 7  23108436.16245  23108441.08145 121435643.273 7  94625188.90145
       600.294         467.768  
  22476284.316 7  22476284.21945  22476288.36345 118113656.564 7  92036621.58745
      -578.628        -450.879  
  23879371.024 6  23879371.27943  23879375.16543 125486945.712 6  97782037.89643
      1390.211        1083.276  
  23835566.844 6  23835564.67843  23835572.52543 125256732.354 6  97602653.59543
      4898.524        3817.020  
  21606471.093 8  21606470.85446  21606476.65646 113542755.237 8  88474879.00946
      2624.904        2045.378  
  22572634.101 8  22572633.14546  22572640.88246 118619988.565 8  92431168.62746
      1493.735        1163.950  
  20128591.234 8  20128591.16247  20128594.39047 105776456.901 8  82423222.55247
      2977.436        2320.081  
  23733694.472 7  23733695.26145  23733702.27745 124721405.520 7  97185515.16145
      5150.078        4013.046  
 18  2 21 16 41 53.0000000  0  9G 2G12G15G20G21G24G25G29G32         
  24292585.245 7  24292583.84544  24292586.59544 127658383.141 7  99474077.97844
      1062.616         828.014  
  23108322.780 7  23108321.94345  23108326.88845 121435042.825 7  94624721.02145
       600.629         468.017  
  22476394.492 8  22476394.29345  22476398.53945 118114235.167 8  92037072.44845
      -578.578        -450.842  
  23879106.187 6  23879106.91043  23879110.60543 125485555.242 6  97780954.41343
      1390.716        1083.674  
  23834634.243 5  23834632.66443  23834640.17743 125251833.653 5  97598836.43243
      4898.878        3817.302  
  21605971.706 8  21605971.41846  21605977.12046 113540130.405 8  88472833.68646
      2624.783        2045.286  
  22572349.946 8  22572348.90246  22572356.66046 118618494.776 8  92430004.63746
      1493.883        1164.062  
  20128024.749 8  20128024.60447  20128027.85047 105773479.688 8  82420902.64847
      2977.004        2319.740  
  23732714.561 7  23732715.34045  23732722.30345 124716255.532 7  97181502.18945
      5149.918        4012.915  
 18  2 21 16 41 54.0000000  0  9G 2G12G15G20G21G24G25G29G32         
  24292382.757 7  24292381.63644  24292384.32144 127657320.604 7  99473250.02844
      1062.463         827.892  
  23108208.299 7  23108207.60145  23108212.73845 121434442.044 7  94624252.87545
       600.946         468.280  
  22476504.552 7  22476504.43645  22476508.67645 118114813.808 7  92037523.33545
      -578.660        -450.901  
  23878841.285 6  23878842.02343  23878845.69443 125484164.310 6  97779870.56643
      1391.162        1084.029  
  23833702.132 5  23833700.28043  23833708.04743 125246934.601 5  97595018.99843
      4899.227        3817.569  
  21605472.368 8  21605471.91546  21605477.62946 113537505.667 8  88470788.43446
      2624.692        2045.216  
  22572065.595 8  22572064.64346  22572072.44646 118617000.772 8  92428840.47846
      1494.112        1164.244  
  20127458.362 8  20127458.15347  20127461.42047 105770502.950 8  82418583.11247
      2976.501        2319.353  
  23731734.615 7  23731735.38445  23731742.39145 124711105.711 7  97177489.34445
      5149.737        4012.782  
 18  2 21 16 41 55.0000000  0  9G 2G12G15G20G21G24G25G29G32         
  24292180.600 7  24292179.41944  24292182.13244 127656258.291 7  99472422.25444
      1062.201         827.686  
  23108094.204 7  23108093.11345  23108098.21145 121433840.940 7  94623784.48345
       601.266         468.515  
  22476614.582 7  22476614.63445  22476618.80045 118115392.522 7  92037974.28045
      -578.751        -450.973  
  23878576.918 6  23878577.48843  23878580.96743 125482773.003 6  97778786.41843
      1391.495        1084.299  
  23832770.365 6  23832767.68443  23832775.85443 125242035.340 6  97591201.39943
      4899.365        3817.681  
  21604972.957 8  21604972.52346  21604978.26746 113534881.106 8  88468743.32346
      2624.471        2045.040  
  22571781.352 8  22571780.39346  22571788.13046 118615506.640 8  92427676.22046
      1494.195        1164.307  
  20126892.124 8  20126891.80847  20126895.10947 105767526.733 8  82416263.98047
      2975.957        2318.929  
  23730754.701 7  23730755.48245  23730762.41745 124705956.083 7  97173476.64645
      5149.531        4012.624  
 18  2 21 16 41 56.0000000  0  9G 2G12G15G20G21G24G25G29G32         
  24291978.429 7  24291977.32744  24291979.95644 127655196.095 7  99471594.56544
      1062.136         827.646  
  23107979.483 7  23107978.53745  23107983.72945 121433239.401 7  94623315.75045
       601.757         468.904  
  22476724.749 7  22476724.74145  22476728.94445 118115971.153 7  92038425.16145
      -578.589        -450.850  
  23878312.196 6  23878312.29343  23878315.79243 125481381.110 6  97777701.83243
      1392.185        1084.805  
  23831837.333 6  23831835.24643  23831843.36843 125237135.695 6  97587383.49743
      4899.838        3818.053  
  21604473.650 8  21604473.07646  21604478.85146 113532256.587 8  88466698.24546
      2624.498        2045.061  
  22571496.936 8  22571496.05846  22571503.72346 118614012.208 8  92426511.72846
      1494.582        1164.608  
  20126325.791 8  20126325.53647  20126328.79347 105764550.861 8  82413945.12147
      2975.699        2318.723  
  23729775.062 7  23729775.42745  23729782.52145 124700806.515 7  97169464.00545
      5149.538        4012.613  
 18  2 21 16 41 57.0000000  0  9G 2G12G15G20G21G24G25G29G32         
  24291776.420 7  24291775.13244  24291777.81044 127654134.012 7  99470766.97544
      1062.027         827.542  
  23107864.846 7  23107864.04045  23107869.09045 121432637.484 7  94622846.72845
       602.106         469.166  
  22476834.801 7  22476834.83345  22476839.04345 118116549.774 7  92038876.03645
      -578.617        -450.871  
  23878047.685 6  23878047.51643  23878051.01343 125479988.804 6  97776616.93443
      1392.512        1085.054  
  23830905.599 6  23830902.93243  23830910.95543 125232235.720 6  97583565.33843
      4900.139        3818.289  
  21603974.271 8  21603973.66146  21603979.40046 113529632.124 8  88464653.21046
      2624.435        2045.014  
  22571212.418 8  22571211.72546  22571219.32946 118612517.559 8  92425347.06746
      1494.757        1164.746  
  20125759.539 8  20125759.40747  20125762.63647 105761575.434 8  82411626.60847
      2975.205        2318.340  
  23728794.852 7  23728795.53345  23728802.70345 124695657.070 7  97165451.45145
      5149.384        4012.511  
 18  2 21 16 41 58.0000000  0  9G 2G12G15G20G21G24G25G29G32         
  24291574.499 7  24291573.01344  24291575.91944 127653072.139 7  99469939.54444
      1061.767         827.350  
  23107750.016 7  23107749.48445  23107754.51445 121432035.247 7  94622377.45545
       602.397         469.399  
  22476944.837 7  22476944.86245  22476949.09045 118117128.442 7  92039326.94445
      -578.691        -450.926  
  23877782.488 6  23877782.60443  23877786.66843 125478596.084 6  97775531.70543
      1392.927        1085.394  
  23829972.970 5  23829970.53443  23829978.38643 125227335.468 5  97579746.97843
      4900.391        3818.459  
  21603474.774 8  21603474.32146  21603480.04546 113527007.821 8  88462608.29946
      2624.223        2044.849  
  22570927.954 7  22570927.33346  22570934.84946 118611022.750 7  92424182.28446
      1494.890        1164.844  
  20125193.436 8  20125193.30447  20125196.55947 105758600.494 8  82409308.47347
      2974.697        2317.945  
  23727815.308 7  23727815.74345  23727822.84545 124690507.874 7  97161439.09245
      5149.071        4012.261  
 18  2 21 16 41 59.0000000  0  9G 2G12G15G20G21G24G25G29G32         
  24291372.709 7  24291371.12744  24291373.92744 127652010.465 7  99469112.26944
      1061.575         827.197  
  23107635.190 7  23107634.96845  23107639.75345 121431432.709 7  94621907.94045
       602.688         469.636  
  22477055.012 7  22477055.10345  22477059.18546 118117707.101 7  92039777.84346
      -578.654        -450.894  
  23877517.547 6  23877517.41643  23877521.68843 125477202.873 6  97774446.07943
      1393.456        1085.826  
  23829039.856 5  23829038.24243  23829045.60143 125222434.870 5  97575928.32743
      4900.771        3818.797  
  21602975.417 8  21602975.01646  21602980.63446 113524383.664 8  88460563.50046
      2624.084        2044.743  
  22570643.470 8  22570642.97546  22570650.37046 118609527.775 8  92423017.36846
      1495.058        1164.983  
  20124627.472 8  20124627.28547  20124630.49847 105755626.018 8  82406990.70047
      2974.243        2317.593  
  23726835.275 7  23726835.91745  23726843.09545 124685358.815 7  97157426.83845
      5148.991        4012.202  
 18  2 21 16 42  0.0000000  0  9G 2G12G15G20G21G24G25G29G32         
  24291170.553 7  24291169.15044  24291172.11044 127650948.904 7  99468285.08044
      1061.504         827.146  
  23107520.612 7  23107520.06745  23107524.89245 121430829.679 7  94621438.04545
       603.276         470.084  
  22477165.142 8  22477165.19645  22477169.44846 118118285.764 8  92040228.74846
      -578.665        -450.908  
  23877252.305 6  23877251.53443  23877255.91043 125475809.210 6  97773360.10643
      1393.889        1086.145  
  23828106.937 5  23828105.23043  23828113.17743 125217533.959 5  97572109.44343
      4901.067        3819.000  
  21602476.017 8  21602475.69246  21602481.22446 113521759.561 8  88458518.74746
      2624.077        2044.730  
  22570359.013 8  22570358.49846  22570365.88746 118608032.479 8  92421852.20446
      1495.456        1165.288  
  20124061.496 8  20124061.29347  20124064.59447 105752651.934 8  82404673.23147
      2973.888        2317.316  
  23725855.367 7  23725856.08445  23725863.29645 124680209.802 7  97153414.62345
      5148.988        4012.194  
 18  2 21 16 42  1.0000000  0  9G 2G12G15G20G21G24G25G29G32         
  24290968.582 7  24290966.99144  24290970.27744 127649887.479 7  99467458.00244
      1061.358         827.023  
  23107405.759 7  23107405.23145  23107409.97945 121430226.342 7  94620967.91545
       603.491         470.248  
  22477275.471 8  22477275.28046  22477279.63445 118118864.387 8  92040679.62345
      -578.604        -450.859  
  23876987.320 6  23876986.29043  23876990.47043 125474415.104 6  97772273.78543
      1394.328        1086.495  
  23827174.048 5  23827172.49443  23827180.65043 125212632.773 5  97568290.33643
      4901.323        3819.219  
  21601976.559 8  21601976.33446  21601981.95146 113519135.557 8  88456474.06746
      2623.954        2044.643  
  22570074.431 8  22570073.94446  22570081.28346 118606537.002 8  92420686.89746
      1495.568        1165.377  
  20123495.627 8  20123495.45547  20123498.72647 105749678.312 8  82402356.12447
      2973.391        2316.927  
  23724875.429 7  23724876.29145  23724883.54945 124675060.980 7  97149402.55645
      5148.727        4011.993  
 18  2 21 16 42  2.0000000  0  9G 2G12G15G20G21G24G25G29G32         
  24290766.556 7  24290765.03844  24290768.19044 127648826.293 7  99466631.10144
      1061.066         826.812  
  23107290.980 7  23107290.34745  23107295.12945 121429622.698 7  94620497.54445
       603.797         470.491  
  22477385.502 8  22477385.41546  22477389.77545 118119443.051 8  92041130.52645
      -578.683        -450.917  
  23876721.778 6  23876720.71343  23876724.72343 125473020.543 6  97771187.12443
      1394.788        1086.831  
  23826240.759 5  23826239.97243  23826247.77043 125207731.259 5  97564470.98243
      4901.679        3819.476  
  21601477.212 8  21601477.10346  21601482.65946 113516511.737 8  88454429.53046
      2623.727        2044.465  
  22569789.841 8  22569789.35446  22569796.72646 118605041.381 8  92419521.47946
      1495.693        1165.475  
